Title,Address,Latitude,Longitude,Found Address,Match Quality,Source
Sklep 28,"BYTOM, ul. Łużycka 82a",50.3546896,18.8975527,"Łużycka 82a, 41-902 Bytom, Poland",Match,Google
Sklep 29,"BYTOM, ul. Strzelców Bytomskich 228",50.3913576,18.8814547,"Strzelców Bytomskich 228, 41-933 Bytom, Poland",Match,Google
Sklep 30,"BYTOM, ul. Wrocławska 134",50.3510596,18.8878286,"Wrocławska 134, 41-902 Bytom, Poland",Match,Google
Sklep 39,"CHORZÓW, ul. 3 Maja 89",50.302031,18.9377201,"3 Maja 89, 41-500 Chorzów, Poland",Match,Google
Sklep 40,"CHORZÓW, ul. Hajducka 57",50.2870193,18.949873,"Hajducka 57, 41-500 Chorzów, Poland",Match,Google
Sklep 41,"CHORZÓW, ul. Racławicka 20",50.2801722,18.9510881,"Racławicka 20, 41-506 Chorzów, Poland",Match,Google
Sklep 46,"CZELADŹ, ul. Lwowska 2a",50.30785,19.0943455,"Lwowska 2a, 41-253 Czeladź, Poland",Match,Google
